{
"type": "FeatureCollection",
"crs": { "type": "name", "properties": { "name": "urn:ogc:def:crs:EPSG::4269" } },
"features": [
{ "type": "Feature", "properties": { "STATEFP": "51", "COUNTYFP": "109", "GEOID": "51109", "NAME": "Louisa", "state": "VIRGINIA", "county": "LOUISA", "data_item": "BARLEY - PRODUCTION, MEASURED IN BU", "value": "8900" }, "geometry": { "type": "Point", "coordinates": [ -77.925782037427979, 37.9310125 ] } },
{ "type": "Feature", "properties": { "STATEFP": "38", "COUNTYFP": "071", "GEOID": "38071", "NAME": "Ramsey", "state": "NORTH DAKOTA", "county": "RAMSEY", "data_item": "BARLEY - PRODUCTION, MEASURED IN BU", "value": "2737000" }, "geometry": { "type": "Point", "coordinates": [ -98.746146090197755, 48.282436 ] } },
{ "type": "Feature", "properties": { "STATEFP": "51", "COUNTYFP": "007", "GEOID": "51007", "NAME": "Amelia", "state": "VIRGINIA", "county": "AMELIA", "data_item": "BARLEY - PRODUCTION, MEASURED IN BU", "value": "19000" }, "geometry": { "type": "Point", "coordinates": [ -78.033928153370908, 37.3306955 ] } },
{ "type": "Feature", "properties": { "STATEFP": "53", "COUNTYFP": "043", "GEOID": "53043", "NAME": "Lincoln", "state": "WASHINGTON", "county": "LINCOLN", "data_item": "BARLEY - PRODUCTION, MEASURED IN BU", "value": "120000" }, "geometry": { "type": "Point", "coordinates": [ -118.399822747710203, 47.5308855 ] } },
{ "type": "Feature", "properties": { "STATEFP": "38", "COUNTYFP": "091", "GEOID": "38091", "NAME": "Steele", "state": "NORTH DAKOTA", "county": "STEELE", "data_item": "BARLEY - PRODUCTION, MEASURED IN BU", "value": "560000" }, "geometry": { "type": "Point", "coordinates": [ -97.729618051770487, 47.4990755 ] } },
{ "type": "Feature", "properties": { "STATEFP": "38", "COUNTYFP": "015", "GEOID": "38015", "NAME": "Burleigh", "state": "NORTH DAKOTA", "county": "BURLEIGH", "data_item": "BARLEY - PRODUCTION, MEASURED IN BU", "value": "215000" }, "geometry": { "type": "Point", "coordinates": [ -100.498776295565207, 46.9428245 ] } },
{ "type": "Feature", "properties": { "STATEFP": "08", "COUNTYFP": "003", "GEOID": "08003", "NAME": "Alamosa", "state": "COLORADO", "county": "ALAMOSA", "data_item": "BARLEY - PRODUCTION, MEASURED IN BU", "value": "873000" }, "geometry": { "type": "Point", "coordinates": [ -105.817387740242197, 37.4804965 ] } },
{ "type": "Feature", "properties": { "STATEFP": "38", "COUNTYFP": "031", "GEOID": "38031", "NAME": "Foster", "state": "NORTH DAKOTA", "county": "FOSTER", "data_item": "BARLEY - PRODUCTION, MEASURED IN BU", "value": "322000" }, "geometry": { "type": "Point", "coordinates": [ -98.882864940299669, 47.457211 ] } },
{ "type": "Feature", "properties": { "STATEFP": "38", "COUNTYFP": "027", "GEOID": "38027", "NAME": "Eddy", "state": "NORTH DAKOTA", "county": "EDDY", "data_item": "BARLEY - PRODUCTION, MEASURED IN BU", "value": "176000" }, "geometry": { "type": "Point", "coordinates": [ -98.911304334255249, 47.75964 ] } },
{ "type": "Feature", "properties": { "STATEFP": "38", "COUNTYFP": "067", "GEOID": "38067", "NAME": "Pembina", "state": "NORTH DAKOTA", "county": "PEMBINA", "data_item": "BARLEY - PRODUCTION, MEASURED IN BU", "value": "353000" }, "geometry": { "type": "Point", "coordinates": [ -97.543823527810389, 48.7451475 ] } },
{ "type": "Feature", "properties": { "STATEFP": "38", "COUNTYFP": "079", "GEOID": "38079", "NAME": "Rolette", "state": "NORTH DAKOTA", "county": "ROLETTE", "data_item": "BARLEY - PRODUCTION, MEASURED IN BU", "value": "530000" }, "geometry": { "type": "Point", "coordinates": [ -99.854334010681896, 48.858979 ] } },
{ "type": "Feature", "properties": { "STATEFP": "16", "COUNTYFP": "011", "GEOID": "16011", "NAME": "Bingham", "state": "IDAHO", "county": "BINGHAM", "data_item": "BARLEY - PRODUCTION, MEASURED IN BU", "value": "1982000" }, "geometry": { "type": "Point", "coordinates": [ -112.298018688789909, 43.196387 ] } },
{ "type": "Feature", "properties": { "STATEFP": "16", "COUNTYFP": "027", "GEOID": "16027", "NAME": "Canyon", "state": "IDAHO", "county": "CANYON", "data_item": "BARLEY - PRODUCTION, MEASURED IN BU", "value": "61200" }, "geometry": { "type": "Point", "coordinates": [ -116.65210817626668, 43.5365165 ] } },
{ "type": "Feature", "properties": { "STATEFP": "38", "COUNTYFP": "093", "GEOID": "38093", "NAME": "Stutsman", "state": "NORTH DAKOTA", "county": "STUTSMAN", "data_item": "BARLEY - PRODUCTION, MEASURED IN BU", "value": "411000" }, "geometry": { "type": "Point", "coordinates": [ -98.943669305139281, 46.805644 ] } },
{ "type": "Feature", "properties": { "STATEFP": "16", "COUNTYFP": "021", "GEOID": "16021", "NAME": "Boundary", "state": "IDAHO", "county": "BOUNDARY", "data_item": "BARLEY - PRODUCTION, MEASURED IN BU", "value": "85200" }, "geometry": { "type": "Point", "coordinates": [ -116.417097738829327, 48.674355201479798 ] } },
{ "type": "Feature", "properties": { "STATEFP": "30", "COUNTYFP": "067", "GEOID": "30067", "NAME": "Park", "state": "MONTANA", "county": "PARK", "data_item": "BARLEY - PRODUCTION, MEASURED IN BU", "value": "281000" }, "geometry": { "type": "Point", "coordinates": [ -110.507321276805584, 45.6878275 ] } },
{ "type": "Feature", "properties": { "STATEFP": "08", "COUNTYFP": "021", "GEOID": "08021", "NAME": "Conejos", "state": "COLORADO", "county": "CONEJOS", "data_item": "BARLEY - PRODUCTION, MEASURED IN BU", "value": "557000" }, "geometry": { "type": "Point", "coordinates": [ -106.186714809911962, 37.21177 ] } },
{ "type": "Feature", "properties": { "STATEFP": "16", "COUNTYFP": "065", "GEOID": "16065", "NAME": "Madison", "state": "IDAHO", "county": "MADISON", "data_item": "BARLEY - PRODUCTION, MEASURED IN BU", "value": "4028000" }, "geometry": { "type": "Point", "coordinates": [ -111.689950133150177, 43.8247325 ] } },
{ "type": "Feature", "properties": { "STATEFP": "16", "COUNTYFP": "007", "GEOID": "16007", "NAME": "Bear Lake", "state": "IDAHO", "county": "BEAR LAKE", "data_item": "BARLEY - PRODUCTION, MEASURED IN BU", "value": "228000" }, "geometry": { "type": "Point", "coordinates": [ -111.318316570649117, 42.278481 ] } },
{ "type": "Feature", "properties": { "STATEFP": "30", "COUNTYFP": "111", "GEOID": "30111", "NAME": "Yellowstone", "state": "MONTANA", "county": "YELLOWSTONE", "data_item": "BARLEY - PRODUCTION, MEASURED IN BU", "value": "850000" }, "geometry": { "type": "Point", "coordinates": [ -108.351090081974561, 45.972548 ] } },
{ "type": "Feature", "properties": { "STATEFP": "38", "COUNTYFP": "007", "GEOID": "38007", "NAME": "Billings", "state": "NORTH DAKOTA", "county": "BILLINGS", "data_item": "BARLEY - PRODUCTION, MEASURED IN BU", "value": "38000" }, "geometry": { "type": "Point", "coordinates": [ -103.42032891836611, 46.804793 ] } },
{ "type": "Feature", "properties": { "STATEFP": "30", "COUNTYFP": "041", "GEOID": "30041", "NAME": "Hill", "state": "MONTANA", "county": "HILL", "data_item": "BARLEY - PRODUCTION, MEASURED IN BU", "value": "439000" }, "geometry": { "type": "Point", "coordinates": [ -110.119106734623898, 48.546585 ] } },
{ "type": "Feature", "properties": { "STATEFP": "38", "COUNTYFP": "017", "GEOID": "38017", "NAME": "Cass", "state": "NORTH DAKOTA", "county": "CASS", "data_item": "BARLEY - PRODUCTION, MEASURED IN BU", "value": "686000" }, "geometry": { "type": "Point", "coordinates": [ -97.234513801993103, 46.945494 ] } },
{ "type": "Feature", "properties": { "STATEFP": "30", "COUNTYFP": "031", "GEOID": "30031", "NAME": "Gallatin", "state": "MONTANA", "county": "GALLATIN", "data_item": "BARLEY - PRODUCTION, MEASURED IN BU", "value": "1330000" }, "geometry": { "type": "Point", "coordinates": [ -111.199594391217602, 45.175714001653844 ] } },
{ "type": "Feature", "properties": { "STATEFP": "30", "COUNTYFP": "101", "GEOID": "30101", "NAME": "Toole", "state": "MONTANA", "county": "TOOLE", "data_item": "BARLEY - PRODUCTION, MEASURED IN BU", "value": "2343000" }, "geometry": { "type": "Point", "coordinates": [ -111.7303814377658, 48.7372705 ] } },
{ "type": "Feature", "properties": { "STATEFP": "16", "COUNTYFP": "041", "GEOID": "16041", "NAME": "Franklin", "state": "IDAHO", "county": "FRANKLIN", "data_item": "BARLEY - PRODUCTION, MEASURED IN BU", "value": "293000" }, "geometry": { "type": "Point", "coordinates": [ -111.848887793224904, 42.2229025 ] } },
{ "type": "Feature", "properties": { "STATEFP": "30", "COUNTYFP": "029", "GEOID": "30029", "NAME": "Flathead", "state": "MONTANA", "county": "FLATHEAD", "data_item": "BARLEY - PRODUCTION, MEASURED IN BU", "value": "113000" }, "geometry": { "type": "Point", "coordinates": [ -114.068345554627257, 48.2730075 ] } },
{ "type": "Feature", "properties": { "STATEFP": "06", "COUNTYFP": "093", "GEOID": "06093", "NAME": "Siskiyou", "state": "CALIFORNIA", "county": "SISKIYOU", "data_item": "BARLEY - PRODUCTION, MEASURED IN BU", "value": "166000" }, "geometry": { "type": "Point", "coordinates": [ -122.538867072524738, 41.4985755 ] } },
{ "type": "Feature", "properties": { "STATEFP": "30", "COUNTYFP": "035", "GEOID": "30035", "NAME": "Glacier", "state": "MONTANA", "county": "GLACIER", "data_item": "BARLEY - PRODUCTION, MEASURED IN BU", "value": "1985000" }, "geometry": { "type": "Point", "coordinates": [ -112.957308007314651, 48.6671 ] } },
{ "type": "Feature", "properties": { "STATEFP": "08", "COUNTYFP": "109", "GEOID": "08109", "NAME": "Saguache", "state": "COLORADO", "county": "SAGUACHE", "data_item": "BARLEY - PRODUCTION, MEASURED IN BU", "value": "1464000" }, "geometry": { "type": "Point", "coordinates": [ -106.31548518912507, 38.0566845 ] } },
{ "type": "Feature", "properties": { "STATEFP": "51", "COUNTYFP": "015", "GEOID": "51015", "NAME": "Augusta", "state": "VIRGINIA", "county": "AUGUSTA", "data_item": "BARLEY - PRODUCTION, MEASURED IN BU", "value": "28200" }, "geometry": { "type": "Point", "coordinates": [ -79.304391813399278, 38.181078 ] } },
{ "type": "Feature", "properties": { "STATEFP": "56", "COUNTYFP": "029", "GEOID": "56029", "NAME": "Park", "state": "WYOMING", "county": "PARK", "data_item": "BARLEY - PRODUCTION, MEASURED IN BU", "value": "1857000" }, "geometry": { "type": "Point", "coordinates": [ -109.418036764836486, 44.4025925 ] } },
{ "type": "Feature", "properties": { "STATEFP": "16", "COUNTYFP": "037", "GEOID": "16037", "NAME": "Custer", "state": "IDAHO", "county": "CUSTER", "data_item": "BARLEY - PRODUCTION, MEASURED IN BU", "value": "300000" }, "geometry": { "type": "Point", "coordinates": [ -114.294841773971228, 44.218002 ] } },
{ "type": "Feature", "properties": { "STATEFP": "38", "COUNTYFP": "003", "GEOID": "38003", "NAME": "Barnes", "state": "NORTH DAKOTA", "county": "BARNES", "data_item": "BARLEY - PRODUCTION, MEASURED IN BU", "value": "796000" }, "geometry": { "type": "Point", "coordinates": [ -98.060508228089574, 46.8048005 ] } },
{ "type": "Feature", "properties": { "STATEFP": "16", "COUNTYFP": "051", "GEOID": "16051", "NAME": "Jefferson", "state": "IDAHO", "county": "JEFFERSON", "data_item": "BARLEY - PRODUCTION, MEASURED IN BU", "value": "5234000" }, "geometry": { "type": "Point", "coordinates": [ -112.337933500404134, 43.8467725 ] } },
{ "type": "Feature", "properties": { "STATEFP": "30", "COUNTYFP": "015", "GEOID": "30015", "NAME": "Chouteau", "state": "MONTANA", "county": "CHOUTEAU", "data_item": "BARLEY - PRODUCTION, MEASURED IN BU", "value": "966000" }, "geometry": { "type": "Point", "coordinates": [ -110.472980200414185, 47.863021 ] } },
{ "type": "Feature", "properties": { "STATEFP": "38", "COUNTYFP": "047", "GEOID": "38047", "NAME": "Logan", "state": "NORTH DAKOTA", "county": "LOGAN", "data_item": "BARLEY - PRODUCTION, MEASURED IN BU", "value": "101000" }, "geometry": { "type": "Point", "coordinates": [ -99.476566914228869, 46.456691 ] } },
{ "type": "Feature", "properties": { "STATEFP": "30", "COUNTYFP": "027", "GEOID": "30027", "NAME": "Fergus", "state": "MONTANA", "county": "FERGUS", "data_item": "BARLEY - PRODUCTION, MEASURED IN BU", "value": "374000" }, "geometry": { "type": "Point", "coordinates": [ -109.360738027981668, 47.249509 ] } },
{ "type": "Feature", "properties": { "STATEFP": "38", "COUNTYFP": "029", "GEOID": "38029", "NAME": "Emmons", "state": "NORTH DAKOTA", "county": "EMMONS", "data_item": "BARLEY - PRODUCTION, MEASURED IN BU", "value": "153000" }, "geometry": { "type": "Point", "coordinates": [ -100.2352071045065, 46.3233325 ] } },
{ "type": "Feature", "properties": { "STATEFP": "30", "COUNTYFP": "003", "GEOID": "30003", "NAME": "Big Horn", "state": "MONTANA", "county": "BIG HORN", "data_item": "BARLEY - PRODUCTION, MEASURED IN BU", "value": "770000" }, "geometry": { "type": "Point", "coordinates": [ -107.403650124041874, 45.597502 ] } },
{ "type": "Feature", "properties": { "STATEFP": "38", "COUNTYFP": "097", "GEOID": "38097", "NAME": "Traill", "state": "NORTH DAKOTA", "county": "TRAILL", "data_item": "BARLEY - PRODUCTION, MEASURED IN BU", "value": "1162000" }, "geometry": { "type": "Point", "coordinates": [ -97.165195888525687, 47.469815114764501 ] } },
{ "type": "Feature", "properties": { "STATEFP": "38", "COUNTYFP": "099", "GEOID": "38099", "NAME": "Walsh", "state": "NORTH DAKOTA", "county": "WALSH", "data_item": "BARLEY - PRODUCTION, MEASURED IN BU", "value": "805000" }, "geometry": { "type": "Point", "coordinates": [ -97.715103280932965, 48.35714 ] } },
{ "type": "Feature", "properties": { "STATEFP": "16", "COUNTYFP": "061", "GEOID": "16061", "NAME": "Lewis", "state": "IDAHO", "county": "LEWIS", "data_item": "BARLEY - PRODUCTION, MEASURED IN BU", "value": "169000" }, "geometry": { "type": "Point", "coordinates": [ -116.390554989172728, 46.2621185 ] } },
{ "type": "Feature", "properties": { "STATEFP": "16", "COUNTYFP": "053", "GEOID": "16053", "NAME": "Jerome", "state": "IDAHO", "county": "JEROME", "data_item": "BARLEY - PRODUCTION, MEASURED IN BU", "value": "2919000" }, "geometry": { "type": "Point", "coordinates": [ -114.274223517445648, 42.707152 ] } },
{ "type": "Feature", "properties": { "STATEFP": "30", "COUNTYFP": "057", "GEOID": "30057", "NAME": "Madison", "state": "MONTANA", "county": "MADISON", "data_item": "BARLEY - PRODUCTION, MEASURED IN BU", "value": "102000" }, "geometry": { "type": "Point", "coordinates": [ -111.906714172460852, 45.2192095 ] } },
{ "type": "Feature", "properties": { "STATEFP": "38", "COUNTYFP": "077", "GEOID": "38077", "NAME": "Richland", "state": "NORTH DAKOTA", "county": "RICHLAND", "data_item": "BARLEY - PRODUCTION, MEASURED IN BU", "value": "46400" }, "geometry": { "type": "Point", "coordinates": [ -96.940286032856193, 46.3009375 ] } },
{ "type": "Feature", "properties": { "STATEFP": "51", "COUNTYFP": "143", "GEOID": "51143", "NAME": "Pittsylvania", "state": "VIRGINIA", "county": "PITTSYLVANIA", "data_item": "BARLEY - PRODUCTION, MEASURED IN BU", "value": "22900" }, "geometry": { "type": "Point", "coordinates": [ -79.416741873773674, 36.750088 ] } },
{ "type": "Feature", "properties": { "STATEFP": "16", "COUNTYFP": "019", "GEOID": "16019", "NAME": "Bonneville", "state": "IDAHO", "county": "BONNEVILLE", "data_item": "BARLEY - PRODUCTION, MEASURED IN BU", "value": "4615000" }, "geometry": { "type": "Point", "coordinates": [ -111.433599320425003, 43.3408775 ] } },
{ "type": "Feature", "properties": { "STATEFP": "38", "COUNTYFP": "063", "GEOID": "38063", "NAME": "Nelson", "state": "NORTH DAKOTA", "county": "NELSON", "data_item": "BARLEY - PRODUCTION, MEASURED IN BU", "value": "762000" }, "geometry": { "type": "Point", "coordinates": [ -98.203897593809586, 47.9679295 ] } },
{ "type": "Feature", "properties": { "STATEFP": "38", "COUNTYFP": "055", "GEOID": "38055", "NAME": "McLean", "state": "NORTH DAKOTA", "county": "MCLEAN", "data_item": "BARLEY - PRODUCTION, MEASURED IN BU", "value": "432000" }, "geometry": { "type": "Point", "coordinates": [ -101.031132323278882, 47.507599 ] } },
{ "type": "Feature", "properties": { "STATEFP": "53", "COUNTYFP": "013", "GEOID": "53013", "NAME": "Columbia", "state": "WASHINGTON", "county": "COLUMBIA", "data_item": "BARLEY - PRODUCTION, MEASURED IN BU", "value": "347000" }, "geometry": { "type": "Point", "coordinates": [ -117.926137158583998, 46.316553 ] } },
{ "type": "Feature", "properties": { "STATEFP": "38", "COUNTYFP": "039", "GEOID": "38039", "NAME": "Griggs", "state": "NORTH DAKOTA", "county": "GRIGGS", "data_item": "BARLEY - PRODUCTION, MEASURED IN BU", "value": "478000" }, "geometry": { "type": "Point", "coordinates": [ -98.242789981621883, 47.456883 ] } },
{ "type": "Feature", "properties": { "STATEFP": "30", "COUNTYFP": "013", "GEOID": "30013", "NAME": "Cascade", "state": "MONTANA", "county": "CASCADE", "data_item": "BARLEY - PRODUCTION, MEASURED IN BU", "value": "1412000" }, "geometry": { "type": "Point", "coordinates": [ -111.414219543235745, 47.250337 ] } },
{ "type": "Feature", "properties": { "STATEFP": "53", "COUNTYFP": "075", "GEOID": "53075", "NAME": "Whitman", "state": "WASHINGTON", "county": "WHITMAN", "data_item": "BARLEY - PRODUCTION, MEASURED IN BU", "value": "1212000" }, "geometry": { "type": "Point", "coordinates": [ -117.513628991006044, 46.849842 ] } },
{ "type": "Feature", "properties": { "STATEFP": "30", "COUNTYFP": "005", "GEOID": "30005", "NAME": "Blaine", "state": "MONTANA", "county": "BLAINE", "data_item": "BARLEY - PRODUCTION, MEASURED IN BU", "value": "96000" }, "geometry": { "type": "Point", "coordinates": [ -108.974446752956879, 48.357892 ] } },
{ "type": "Feature", "properties": { "STATEFP": "51", "COUNTYFP": "171", "GEOID": "51171", "NAME": "Shenandoah", "state": "VIRGINIA", "county": "SHENANDOAH", "data_item": "BARLEY - PRODUCTION, MEASURED IN BU", "value": "30000" }, "geometry": { "type": "Point", "coordinates": [ -78.580398365457512, 38.862362 ] } },
{ "type": "Feature", "properties": { "STATEFP": "30", "COUNTYFP": "049", "GEOID": "30049", "NAME": "Lewis and Clark", "state": "MONTANA", "county": "LEWIS AND CLARK", "data_item": "BARLEY - PRODUCTION, MEASURED IN BU", "value": "528000" }, "geometry": { "type": "Point", "coordinates": [ -112.535041101092446, 47.1884645 ] } },
{ "type": "Feature", "properties": { "STATEFP": "30", "COUNTYFP": "099", "GEOID": "30099", "NAME": "Teton", "state": "MONTANA", "county": "TETON", "data_item": "BARLEY - PRODUCTION, MEASURED IN BU", "value": "3720000" }, "geometry": { "type": "Point", "coordinates": [ -112.161250964712124, 47.7621695 ] } },
{ "type": "Feature", "properties": { "STATEFP": "51", "COUNTYFP": "067", "GEOID": "51067", "NAME": "Franklin", "state": "VIRGINIA", "county": "FRANKLIN", "data_item": "BARLEY - PRODUCTION, MEASURED IN BU", "value": "11200" }, "geometry": { "type": "Point", "coordinates": [ -79.868469479855833, 37.0034305 ] } },
{ "type": "Feature", "properties": { "STATEFP": "08", "COUNTYFP": "123", "GEOID": "08123", "NAME": "Weld", "state": "COLORADO", "county": "WELD", "data_item": "BARLEY - PRODUCTION, MEASURED IN BU", "value": "448000" }, "geometry": { "type": "Point", "coordinates": [ -104.547184191293539, 40.436814 ] } },
{ "type": "Feature", "properties": { "STATEFP": "16", "COUNTYFP": "023", "GEOID": "16023", "NAME": "Butte", "state": "IDAHO", "county": "BUTTE", "data_item": "BARLEY - PRODUCTION, MEASURED IN BU", "value": "583000" }, "geometry": { "type": "Point", "coordinates": [ -113.078237606887839, 43.7677205 ] } },
{ "type": "Feature", "properties": { "STATEFP": "51", "COUNTYFP": "165", "GEOID": "51165", "NAME": "Rockingham", "state": "VIRGINIA", "county": "ROCKINGHAM", "data_item": "BARLEY - PRODUCTION, MEASURED IN BU", "value": "23800" }, "geometry": { "type": "Point", "coordinates": [ -78.946553500142585, 38.5189145 ] } },
{ "type": "Feature", "properties": { "STATEFP": "16", "COUNTYFP": "067", "GEOID": "16067", "NAME": "Minidoka", "state": "IDAHO", "county": "MINIDOKA", "data_item": "BARLEY - PRODUCTION, MEASURED IN BU", "value": "5020000" }, "geometry": { "type": "Point", "coordinates": [ -113.563923004128299, 43.0247585 ] } },
{ "type": "Feature", "properties": { "STATEFP": "30", "COUNTYFP": "095", "GEOID": "30095", "NAME": "Stillwater", "state": "MONTANA", "county": "STILLWATER", "data_item": "BARLEY - PRODUCTION, MEASURED IN BU", "value": "72000" }, "geometry": { "type": "Point", "coordinates": [ -109.21936891523292, 45.6496875 ] } },
{ "type": "Feature", "properties": { "STATEFP": "30", "COUNTYFP": "037", "GEOID": "30037", "NAME": "Golden Valley", "state": "MONTANA", "county": "GOLDEN VALLEY", "data_item": "BARLEY - PRODUCTION, MEASURED IN BU", "value": "76600" }, "geometry": { "type": "Point", "coordinates": [ -109.132444332805562, 46.4081255 ] } },
{ "type": "Feature", "properties": { "STATEFP": "30", "COUNTYFP": "009", "GEOID": "30009", "NAME": "Carbon", "state": "MONTANA", "county": "CARBON", "data_item": "BARLEY - PRODUCTION, MEASURED IN BU", "value": "680000" }, "geometry": { "type": "Point", "coordinates": [ -109.143079180298784, 45.326889 ] } },
{ "type": "Feature", "properties": { "STATEFP": "56", "COUNTYFP": "003", "GEOID": "56003", "NAME": "Big Horn", "state": "WYOMING", "county": "BIG HORN", "data_item": "BARLEY - PRODUCTION, MEASURED IN BU", "value": "1819000" }, "geometry": { "type": "Point", "coordinates": [ -108.036042305863958, 44.630567 ] } },
{ "type": "Feature", "properties": { "STATEFP": "30", "COUNTYFP": "059", "GEOID": "30059", "NAME": "Meagher", "state": "MONTANA", "county": "MEAGHER", "data_item": "BARLEY - PRODUCTION, MEASURED IN BU", "value": "410000" }, "geometry": { "type": "Point", "coordinates": [ -110.8227986473442, 46.6368705 ] } },
{ "type": "Feature", "properties": { "STATEFP": "27", "COUNTYFP": "069", "GEOID": "27069", "NAME": "Kittson", "state": "MINNESOTA", "county": "KITTSON", "data_item": "BARLEY - PRODUCTION, MEASURED IN BU", "value": "68300" }, "geometry": { "type": "Point", "coordinates": [ -96.77140759031775, 48.744836 ] } },
{ "type": "Feature", "properties": { "STATEFP": "38", "COUNTYFP": "087", "GEOID": "38087", "NAME": "Slope", "state": "NORTH DAKOTA", "county": "SLOPE", "data_item": "BARLEY - PRODUCTION, MEASURED IN BU", "value": "30800" }, "geometry": { "type": "Point", "coordinates": [ -103.485574504863052, 46.4171665 ] } },
{ "type": "Feature", "properties": { "STATEFP": "38", "COUNTYFP": "049", "GEOID": "38049", "NAME": "McHenry", "state": "NORTH DAKOTA", "county": "MCHENRY", "data_item": "BARLEY - PRODUCTION, MEASURED IN BU", "value": "315000" }, "geometry": { "type": "Point", "coordinates": [ -100.604897858047053, 48.1969455 ] } },
{ "type": "Feature", "properties": { "STATEFP": "53", "COUNTYFP": "057", "GEOID": "53057", "NAME": "Skagit", "state": "WASHINGTON", "county": "SKAGIT", "data_item": "BARLEY - PRODUCTION, MEASURED IN BU", "value": "179000" }, "geometry": { "type": "Point", "coordinates": [ -121.866026798465555, 48.446851 ] } },
{ "type": "Feature", "properties": { "STATEFP": "53", "COUNTYFP": "063", "GEOID": "53063", "NAME": "Spokane", "state": "WASHINGTON", "county": "SPOKANE", "data_item": "BARLEY - PRODUCTION, MEASURED IN BU", "value": "152000" }, "geometry": { "type": "Point", "coordinates": [ -117.43165691463264, 47.550664443349 ] } },
{ "type": "Feature", "properties": { "STATEFP": "53", "COUNTYFP": "065", "GEOID": "53065", "NAME": "Stevens", "state": "WASHINGTON", "county": "STEVENS", "data_item": "BARLEY - PRODUCTION, MEASURED IN BU", "value": "21900" }, "geometry": { "type": "Point", "coordinates": [ -117.846115021562227, 48.394894 ] } },
{ "type": "Feature", "properties": { "STATEFP": "51", "COUNTYFP": "193", "GEOID": "51193", "NAME": "Westmoreland", "state": "VIRGINIA", "county": "WESTMORELAND", "data_item": "BARLEY - PRODUCTION, MEASURED IN BU", "value": "72500" }, "geometry": { "type": "Point", "coordinates": [ -76.736928595936121, 38.117221 ] } },
{ "type": "Feature", "properties": { "STATEFP": "30", "COUNTYFP": "073", "GEOID": "30073", "NAME": "Pondera", "state": "MONTANA", "county": "PONDERA", "data_item": "BARLEY - PRODUCTION, MEASURED IN BU", "value": "3623000" }, "geometry": { "type": "Point", "coordinates": [ -112.446844434129929, 48.2276505 ] } },
{ "type": "Feature", "properties": { "STATEFP": "16", "COUNTYFP": "029", "GEOID": "16029", "NAME": "Caribou", "state": "IDAHO", "county": "CARIBOU", "data_item": "BARLEY - PRODUCTION, MEASURED IN BU", "value": "1750000" }, "geometry": { "type": "Point", "coordinates": [ -111.580545534043551, 42.7203315 ] } },
{ "type": "Feature", "properties": { "STATEFP": "38", "COUNTYFP": "043", "GEOID": "38043", "NAME": "Kidder", "state": "NORTH DAKOTA", "county": "KIDDER", "data_item": "BARLEY - PRODUCTION, MEASURED IN BU", "value": "118000" }, "geometry": { "type": "Point", "coordinates": [ -99.763140018011853, 46.8071425 ] } },
{ "type": "Feature", "properties": { "STATEFP": "08", "COUNTYFP": "105", "GEOID": "08105", "NAME": "Rio Grande", "state": "COLORADO", "county": "RIO GRANDE", "data_item": "BARLEY - PRODUCTION, MEASURED IN BU", "value": "1197000" }, "geometry": { "type": "Point", "coordinates": [ -106.375089049322881, 37.5342505 ] } },
{ "type": "Feature", "properties": { "STATEFP": "04", "COUNTYFP": "021", "GEOID": "04021", "NAME": "Pinal", "state": "ARIZONA", "county": "PINAL", "data_item": "BARLEY - PRODUCTION, MEASURED IN BU", "value": "1025000" }, "geometry": { "type": "Point", "coordinates": [ -111.504442086607497, 33.0267845 ] } },
{ "type": "Feature", "properties": { "STATEFP": "16", "COUNTYFP": "013", "GEOID": "16013", "NAME": "Blaine", "state": "IDAHO", "county": "BLAINE", "data_item": "BARLEY - PRODUCTION, MEASURED IN BU", "value": "1045000" }, "geometry": { "type": "Point", "coordinates": [ -113.87666162265424, 43.3056225 ] } },
{ "type": "Feature", "properties": { "STATEFP": "16", "COUNTYFP": "025", "GEOID": "16025", "NAME": "Camas", "state": "IDAHO", "county": "CAMAS", "data_item": "BARLEY - PRODUCTION, MEASURED IN BU", "value": "222000" }, "geometry": { "type": "Point", "coordinates": [ -114.817890246803131, 43.5063735 ] } },
{ "type": "Feature", "properties": { "STATEFP": "30", "COUNTYFP": "045", "GEOID": "30045", "NAME": "Judith Basin", "state": "MONTANA", "county": "JUDITH BASIN", "data_item": "BARLEY - PRODUCTION, MEASURED IN BU", "value": "303000" }, "geometry": { "type": "Point", "coordinates": [ -110.198809548605482, 46.9959465 ] } },
{ "type": "Feature", "properties": { "STATEFP": "38", "COUNTYFP": "069", "GEOID": "38069", "NAME": "Pierce", "state": "NORTH DAKOTA", "county": "PIERCE", "data_item": "BARLEY - PRODUCTION, MEASURED IN BU", "value": "581000" }, "geometry": { "type": "Point", "coordinates": [ -100.023401792619737, 48.1964015 ] } },
{ "type": "Feature", "properties": { "STATEFP": "27", "COUNTYFP": "119", "GEOID": "27119", "NAME": "Polk", "state": "MINNESOTA", "county": "POLK", "data_item": "BARLEY - PRODUCTION, MEASURED IN BU", "value": "186000" }, "geometry": { "type": "Point", "coordinates": [ -96.660048947769667, 47.802646 ] } },
{ "type": "Feature", "properties": { "STATEFP": "16", "COUNTYFP": "083", "GEOID": "16083", "NAME": "Twin Falls", "state": "IDAHO", "county": "TWIN FALLS", "data_item": "BARLEY - PRODUCTION, MEASURED IN BU", "value": "2508000" }, "geometry": { "type": "Point", "coordinates": [ -114.553094739685434, 42.4561195 ] } },
{ "type": "Feature", "properties": { "STATEFP": "30", "COUNTYFP": "103", "GEOID": "30103", "NAME": "Treasure", "state": "MONTANA", "county": "TREASURE", "data_item": "BARLEY - PRODUCTION, MEASURED IN BU", "value": "633000" }, "geometry": { "type": "Point", "coordinates": [ -107.240234940334972, 46.1572205 ] } },
{ "type": "Feature", "properties": { "STATEFP": "06", "COUNTYFP": "079", "GEOID": "06079", "NAME": "San Luis Obispo", "state": "CALIFORNIA", "county": "SAN LUIS OBISPO", "data_item": "BARLEY - PRODUCTION, MEASURED IN BU", "value": "245000" }, "geometry": { "type": "Point", "coordinates": [ -120.340763542321639, 35.3225245 ] } },
{ "type": "Feature", "properties": { "STATEFP": "30", "COUNTYFP": "051", "GEOID": "30051", "NAME": "Liberty", "state": "MONTANA", "county": "LIBERTY", "data_item": "BARLEY - PRODUCTION, MEASURED IN BU", "value": "384000" }, "geometry": { "type": "Point", "coordinates": [ -111.013054378709256, 48.5668445 ] } },
{ "type": "Feature", "properties": { "STATEFP": "16", "COUNTYFP": "077", "GEOID": "16077", "NAME": "Power", "state": "IDAHO", "county": "POWER", "data_item": "BARLEY - PRODUCTION, MEASURED IN BU", "value": "220000" }, "geometry": { "type": "Point", "coordinates": [ -112.818364375728478, 42.7042365 ] } },
{ "type": "Feature", "properties": { "STATEFP": "16", "COUNTYFP": "069", "GEOID": "16069", "NAME": "Nez Perce", "state": "IDAHO", "county": "NEZ PERCE", "data_item": "BARLEY - PRODUCTION, MEASURED IN BU", "value": "106000" }, "geometry": { "type": "Point", "coordinates": [ -116.836827339477011, 46.226481 ] } },
{ "type": "Feature", "properties": { "STATEFP": "38", "COUNTYFP": "005", "GEOID": "38005", "NAME": "Benson", "state": "NORTH DAKOTA", "county": "BENSON", "data_item": "BARLEY - PRODUCTION, MEASURED IN BU", "value": "1279000" }, "geometry": { "type": "Point", "coordinates": [ -99.479082160101399, 48.131583 ] } }
]
}
